ResID,ResName,LONGITUDE,LATITUDE
1,LowerKan,-115.186,50.694
2,SprayLake,-115.440,50.942
3,Barrie,-115.181,50.947
4,Minnewank,-115.557,51.313
5,GhostLake,-114.684,51.181
6,Glenmore,-114.182,50.936
